{"meta":{"code":200},"response":{"venues":[{"id":"4acda5bbf964a5207ecc20e3","name":"Shoreditch House","contact":{"phone":"+442077395040","formattedPhone":"+44 20 7739 5040","twitter":"sohohouse"},"location":{"address":"Ebor St","lat":51.52388468468652,"lng":-0.07626056671142578,"distance":18,"postalCode":"E1 6AW","cc":"GB","city":"Shoreditch","state":"Greater London","country":"United Kingdom"},"categories":[{"id":"4bf58dd8d48988d121941735","name":"Lounge","pluralName":"Lounges","shortName":"Lounge","icon":{"prefix":"https:\/\/ss1.4sqi.net\/img\/categories_v2\/nightlife\/lounge_","suffix":".png"},"primary":true}],"verified":true,"stats":{"checkinsCount":14420,"usersCount":5676,"tipCount":98},"url":"http:\/\/www.shoreditchhouse.com","specials":{"count":0,"items":[]},"hereNow":{"count":1,"groups":[{"type":"others","name":"Other people here","count":1,"items":[]}]},"venuePage":{"id":"69979875"},"referralId":"v-1396351310"},{"id":"51d6640f498e048f66b3f9ae","name":"Ace Hotel","contact":{"phone":"+442076139800","formattedPhone":"+44 20 7613 9800","twitter":"acehotel","facebook":"59197395582"},"location":{"address":"100 Shoreditch High St","lat":51.525657519660015,"lng":-0.07752030376023007,"distance":197,"postalCode":"E1 6JQ","cc":"GB","city":"Shoreditch","state":"Greater London","country":"United Kingdom"},"categories":[{"id":"4bf58dd8d48988d1fa931735","name":"Hotel","pluralName":"Hotels","shortName":"Hotel","icon":{"prefix":"https:\/\/ss1.4sqi.net\/img\/categories_v2\/travel\/hotel_","suffix":".png"},"primary":true}],"verified":true,"stats":{"checkinsCount":2363,"usersCount":1268,"tipCount":11},"url":"http:\/\/www.acehotel.com","specials":{"count":0,"items":[]},"hereNow":{"count":1,"groups":[{"type":"others","name":"Other people here","count":1,"items":[]}]},"referralId":"v-1396351310"},{"id":"507dde91e412203dde77efb6","name":"BrewDog Shoreditch","contact":{"phone":"+442077298476","formattedPhone":"+44 20 7729 8476","twitter":"brewdogshored"},"location":{"address":"55 Bethnal Green Rd","lat":51.52461896800237,"lng":-0.07243037223815918,"distance":279,"postalCode":"E1 6LA","cc":"GB","city":"Shoreditch","state":"Greater London","country":"United Kingdom"},"categories":[{"id":"4bf58dd8d48988d116941735","name":"Bar","pluralName":"Bars","shortName":"Bar","icon":{"prefix":"https:\/\/ss1.4sqi.net\/img\/categories_v2\/nightlife\/bar_","suffix":".png"},"primary":true}],"verified":true,"stats":{"checkinsCount":4682,"usersCount":2814,"tipCount":56},"url":"http:\/\/www.brewdog.com","menu":{"type":"Menu","label":"Menu","anchor":"View Menu","url":"https:\/\/foursquare.com\/v\/brewdog-shoreditch\/507dde91e412203dde77efb6\/menu","mobileUrl":"https:\/\/foursquare.com\/v\/507dde91e412203dde77efb6\/device_menu"},"specials":{"count":0,"items":[]},"hereNow":{"count":0,"groups":[]},"referralId":"v-1396351310"},{"id":"51605f56e4b024efa71a9873","name":"The Crown and Shuttle","contact":{"phone":"+442073752905","formattedPhone":"+44 20 7375 2905","twitter":"crownandshuttle"},"location":{"address":"226 Shoreditch High St","lat":51.52244278481262,"lng":-0.07817298173904418,"distance":217,"postalCode":"E1 6PS","cc":"GB","city":"Shoreditch","state":"Greater London","country":"United Kingdom"},"categories":[{"id":"4bf58dd8d48988d11b941735","name":"Pub","pluralName":"Pubs","shortName":"Pub","icon":{"prefix":"https:\/\/ss1.4sqi.net\/img\/categories_v2\/nightlife\/pub_","suffix":".png"},"primary":true}],"verified":false,"stats":{"checkinsCount":2430,"usersCount":1428,"tipCount":37},"url":"http:\/\/crownandshuttle.co.uk","specials":{"count":0,"items":[]},"hereNow":{"count":0,"groups":[]},"referralId":"v-1396351310"},{"id":"4acefee0f964a5203ad220e3","name":"The Book Club","contact":{"phone":"+442076848618","formattedPhone":"+44 20 7684 8618","twitter":"thebookclubec2"},"location":{"address":"100-106 Leonard St.","lat":51.52484379645783,"lng":-0.08147769039349043,"distance":365,"postalCode":"EC2A 4RH","cc":"GB","city":"Shoreditch","state":"Greater London","country":"United Kingdom"},"categories":[{"id":"4bf58dd8d48988d116941735","name":"Bar","pluralName":"Bars","shortName":"Bar","icon":{"prefix":"https:\/\/ss1.4sqi.net\/img\/categories_v2\/nightlife\/bar_","suffix":".png"},"primary":true}],"verified":false,"stats":{"checkinsCount":9936,"usersCount":5609,"tipCount":135},"url":"http:\/\/www.wearetbc.com","menu":{"type":"Menu","label":"Menu","anchor":"View Menu","url":"https:\/\/foursquare.com\/v\/the-book-club\/4acefee0f964a5203ad220e3\/menu","mobileUrl":"https:\/\/foursquare.com\/v\/4acefee0f964a5203ad220e3\/device_menu"},"specials":{"count":0,"items":[]},"hereNow":{"count":1,"groups":[{"type":"others","name":"Other people here","count":1,"items":[]}]},"referralId":"v-1396351310"},{"id":"4ad78c64f964a5200f0c21e3","name":"The Owl & Pussycat","contact":{"phone":"+442034870088","formattedPhone":"+44 20 3487 0088","twitter":"34redchurch"},"location":{"address":"34 Redchurch St","lat":51.52431378309289,"lng":-0.07548980037134943,"distance":67,"postalCode":"E2 7DP","cc":"GB","city":"Shoreditch","state":"Greater London","country":"United Kingdom"},"categories":[{"id":"4bf58dd8d48988d11b941735","name":"Pub","pluralName":"Pubs","shortName":"Pub","icon":{"prefix":"https:\/\/ss1.4sqi.net\/img\/categories_v2\/nightlife\/pub_","suffix":".png"},"primary":true}],"verified":false,"stats":{"checkinsCount":5795,"usersCount":2907,"tipCount":48},"url":"http:\/\/owlandpussycatshoreditch.com","menu":{"type":"Menu","label":"Menu","anchor":"View Menu","url":"https:\/\/foursquare.com\/v\/the-owl--pussycat\/4ad78c64f964a5200f0c21e3\/menu","mobileUrl":"https:\/\/foursquare.com\/v\/4ad78c64f964a5200f0c21e3\/device_menu"},"specials":{"count":0,"items":[]},"hereNow":{"count":0,"groups":[]},"referralId":"v-1396351310"},{"id":"4ac518baf964a520fca120e3","name":"The Electricity Showrooms","contact":{"phone":"+442077393939","formattedPhone":"+44 20 7739 3939"},"location":{"address":"39 Hoxton Sq","lat":51.52735573786512,"lng":-0.08002638816833496,"distance":448,"postalCode":"N1 6NN","cc":"GB","city":"Hoxton","state":"Greater London","country":"United Kingdom"},"categories":[{"id":"4bf58dd8d48988d11b941735","name":"Pub","pluralName":"Pubs","shortName":"Pub","icon":{"prefix":"https:\/\/ss1.4sqi.net\/img\/categories_v2\/nightlife\/pub_","suffix":".png"},"primary":true}],"verified":false,"stats":{"checkinsCount":4254,"usersCount":2581,"tipCount":42},"url":"http:\/\/www.electricityshowrooms.com","menu":{"type":"Menu","label":"Menu","anchor":"View Menu","url":"https:\/\/foursquare.com\/v\/the-electricity-showrooms\/4ac518baf964a520fca120e3\/menu","mobileUrl":"https:\/\/foursquare.com\/v\/4ac518baf964a520fca120e3\/device_menu"},"specials":{"count":0,"items":[]},"hereNow":{"count":0,"groups":[]},"referralId":"v-1396351310"},{"id":"4ac518c7f964a5206aa520e3","name":"The Water Poet","contact":{"phone":"+442074260495","formattedPhone":"+44 20 7426 0495","twitter":"thewaterpoet"},"location":{"address":"9-11 Folgate St.","lat":51.52118776072269,"lng":-0.07819175720214844,"distance":341,"postalCode":"E1 6BX","cc":"GB","city":"Spitalfields and Banglatown","state":"Greater London","country":"United Kingdom"},"categories":[{"id":"4bf58dd8d48988d11b941735","name":"Pub","pluralName":"Pubs","shortName":"Pub","icon":{"prefix":"https:\/\/ss1.4sqi.net\/img\/categories_v2\/nightlife\/pub_","suffix":".png"},"primary":true}],"verified":false,"stats":{"checkinsCount":5913,"usersCount":3404,"tipCount":60},"url":"http:\/\/www.waterpoet.co.uk","reservations":{"url":"http:\/\/www.toptable.co.uk\/single.aspx?rid=80890&ref=9601"},"menu":{"type":"Menu","label":"Menu","anchor":"View Menu","url":"https:\/\/foursquare.com\/v\/the-water-poet\/4ac518c7f964a5206aa520e3\/menu","mobileUrl":"https:\/\/foursquare.com\/v\/4ac518c7f964a5206aa520e3\/device_menu"},"specials":{"count":0,"items":[]},"hereNow":{"count":1,"groups":[{"type":"others","name":"Other people here","count":1,"items":[]}]},"referralId":"v-1396351310"},{"id":"4acdbafef964a520d5cc20e3","name":"Bar Kick","contact":{"phone":"+442077398700","formattedPhone":"+44 20 7739 8700","twitter":"whatsonbarkick"},"location":{"address":"127 Shoreditch High St","lat":51.52680839705218,"lng":-0.07793426513671875,"distance":327,"postalCode":"E1 6JE","cc":"GB","city":"Shoreditch","state":"Greater London","country":"United Kingdom"},"categories":[{"id":"4bf58dd8d48988d116941735","name":"Bar","pluralName":"Bars","shortName":"Bar","icon":{"prefix":"https:\/\/ss1.4sqi.net\/img\/categories_v2\/nightlife\/bar_","suffix":".png"},"primary":true}],"verified":false,"stats":{"checkinsCount":4077,"usersCount":2739,"tipCount":43},"url":"http:\/\/www.cafekick.co.uk","menu":{"type":"Menu","label":"Menu","anchor":"View Menu","url":"https:\/\/foursquare.com\/v\/bar-kick\/4acdbafef964a520d5cc20e3\/menu","mobileUrl":"https:\/\/foursquare.com\/v\/4acdbafef964a520d5cc20e3\/device_menu"},"specials":{"count":0,"items":[]},"hereNow":{"count":0,"groups":[]},"referralId":"v-1396351310"},{"id":"4ac518c6f964a52013a520e3","name":"The Old Blue Last","contact":{"phone":"+442077397033","formattedPhone":"+44 20 7739 7033","twitter":"theoldbluelast"},"location":{"address":"39 Great Eastern St.","crossStreet":"at Curtain Rd.","lat":51.5243311674796,"lng":-0.08021348690664853,"distance":269,"postalCode":"EC2A 3ES","cc":"GB","city":"Shoreditch","state":"Greater London","country":"United Kingdom"},"categories":[{"id":"4bf58dd8d48988d11b941735","name":"Pub","pluralName":"Pubs","shortName":"Pub","icon":{"prefix":"https:\/\/ss1.4sqi.net\/img\/categories_v2\/nightlife\/pub_","suffix":".png"},"primary":true}],"verified":false,"stats":{"checkinsCount":4691,"usersCount":2768,"tipCount":34},"url":"http:\/\/www.theoldbluelast.com","menu":{"type":"Menu","label":"Menu","anchor":"View Menu","url":"https:\/\/foursquare.com\/v\/the-old-blue-last\/4ac518c6f964a52013a520e3\/menu","mobileUrl":"https:\/\/foursquare.com\/v\/4ac518c6f964a52013a520e3\/device_menu"},"specials":{"count":0,"items":[]},"hereNow":{"count":0,"groups":[]},"referralId":"v-1396351310"},{"id":"511e7cd0e4b0eaecfc0f759c","name":"Well & Bucket","contact":{"phone":"+442036646454","formattedPhone":"+44 20 3664 6454","twitter":"wellandbucket"},"location":{"address":"143 Bethnal Green Rd","lat":51.525269,"lng":-0.070946,"distance":399,"postalCode":"E2 7DG","cc":"GB","city":"Shoreditch","state":"Greater London","country":"United Kingdom"},"categories":[{"id":"4bf58dd8d48988d11b941735","name":"Pub","pluralName":"Pubs","shortName":"Pub","icon":{"prefix":"https:\/\/ss1.4sqi.net\/img\/categories_v2\/nightlife\/pub_","suffix":".png"},"primary":true}],"verified":false,"stats":{"checkinsCount":1731,"usersCount":938,"tipCount":29},"url":"http:\/\/www.wellandbucket.com","specials":{"count":0,"items":[]},"hereNow":{"count":0,"groups":[]},"referralId":"v-1396351310"},{"id":"524c45f8498e72c6fba8448a","name":"Far Rockaway","contact":{"phone":"+442083053090","formattedPhone":"+44 20 8305 3090","twitter":"farrockawaye1"},"location":{"address":"97-113 Curtain Rd","lat":51.525532286228184,"lng":-0.08034888400807456,"distance":322,"postalCode":"EC2A 3BS","cc":"GB","city":"Shoreditch","state":"Greater London","country":"United Kingdom"},"categories":[{"id":"4bf58dd8d48988d14e941735","name":"American Restaurant","pluralName":"American Restaurants","shortName":"American","icon":{"prefix":"https:\/\/ss1.4sqi.net\/img\/categories_v2\/food\/default_","suffix":".png"},"primary":true}],"verified":false,"stats":{"checkinsCount":725,"usersCount":554,"tipCount":25},"url":"http:\/\/www.farrockaway.co.uk","reservations":{"url":"http:\/\/www.toptable.co.uk\/single.aspx?rid=98214&ref=9601"},"menu":{"type":"Menu","label":"Menu","anchor":"View Menu","url":"https:\/\/foursquare.com\/v\/far-rockaway-shoreditch-greater-london\/524c45f8498e72c6fba8448a\/menu","mobileUrl":"https:\/\/foursquare.com\/v\/524c45f8498e72c6fba8448a\/device_menu"},"specials":{"count":0,"items":[]},"hereNow":{"count":0,"groups":[]},"referralId":"v-1396351310"},{"id":"4ac5dbf4f964a5207cb220e3","name":"Strongroom Bar","contact":{"phone":"+442074265103","formattedPhone":"+44 20 7426 5103","twitter":"strongroombar"},"location":{"address":"120-124 Curtain Rd","lat":51.525986,"lng":-0.079831,"distance":323,"postalCode":"EC2A 3SQ","cc":"GB","city":"Shoreditch","state":"Greater London","country":"United Kingdom"},"categories":[{"id":"4bf58dd8d48988d116941735","name":"Bar","pluralName":"Bars","shortName":"Bar","icon":{"prefix":"https:\/\/ss1.4sqi.net\/img\/categories_v2\/nightlife\/bar_","suffix":".png"},"primary":true}],"verified":true,"stats":{"checkinsCount":5653,"usersCount":2903,"tipCount":59},"url":"http:\/\/www.strongroombar.com","menu":{"type":"Menu","label":"Menu","anchor":"View Menu","url":"https:\/\/foursquare.com\/v\/strongroom-bar\/4ac5dbf4f964a5207cb220e3\/menu","mobileUrl":"https:\/\/foursquare.com\/v\/4ac5dbf4f964a5207cb220e3\/device_menu"},"specials":{"count":0,"items":[]},"hereNow":{"count":0,"groups":[]},"referralId":"v-1396351310"},{"id":"4ac518bff964a5205ca320e3","name":"Queen of Hoxton","contact":{"phone":"+442074220958","formattedPhone":"+44 20 7422 0958","twitter":"_queenofhoxton_"},"location":{"address":"1-5 Curtain Rd","lat":51.521848655379095,"lng":-0.08077740669250488,"distance":391,"postalCode":"EC2A 3JX","cc":"GB","city":"Shoreditch","state":"Greater London","country":"United Kingdom"},"categories":[{"id":"4bf58dd8d48988d116941735","name":"Bar","pluralName":"Bars","shortName":"Bar","icon":{"prefix":"https:\/\/ss1.4sqi.net\/img\/categories_v2\/nightlife\/bar_","suffix":".png"},"primary":true}],"verified":true,"stats":{"checkinsCount":4359,"usersCount":3140,"tipCount":58},"url":"http:\/\/www.queenofhoxton.com","menu":{"type":"Menu","label":"Menu","anchor":"View Menu","url":"https:\/\/foursquare.com\/v\/queen-of-hoxton\/4ac518bff964a5205ca320e3\/menu","mobileUrl":"https:\/\/foursquare.com\/v\/4ac518bff964a5205ca320e3\/device_menu"},"specials":{"count":1,"items":[{"id":"4cebdc3a3608a09081feae3f","type":"regular","message":"Become a regular by checking in 3 times in 10 days and get 20% off your first order (within 24 hours of that third check-in).","description":"Unlocked for checking in 3 times in 10 days","icon":"frequency","title":"Loyalty Special","provider":"foursquare","redemption":"standard"}]},"hereNow":{"count":0,"groups":[]},"venuePage":{"id":"40350977"},"referralId":"v-1396351310"},{"id":"52482fbd498ec22aa7d95532","name":"Hoi Polloi","contact":{"phone":"+442088806100","formattedPhone":"+44 20 8880 6100","twitter":"wearehoipolloi"},"location":{"address":"Ace Hotel, 100 Shoreditch High St","lat":51.52583737111519,"lng":-0.077509025394536,"distance":215,"postalCode":"E1 6JQ","cc":"GB","city":"Shoreditch","state":"Greater London","country":"United Kingdom"},"categories":[{"id":"4bf58dd8d48988d1c4941735","name":"Restaurant","pluralName":"Restaurants","shortName":"Restaurant","icon":{"prefix":"https:\/\/ss1.4sqi.net\/img\/categories_v2\/food\/default_","suffix":".png"},"primary":true}],"verified":false,"stats":{"checkinsCount":816,"usersCount":598,"tipCount":28},"url":"http:\/\/hoi-polloi.co.uk","reservations":{"url":"http:\/\/www.toptable.co.uk\/single.aspx?rid=97992&ref=9601"},"specials":{"count":0,"items":[]},"hereNow":{"count":0,"groups":[]},"referralId":"v-1396351310"},{"id":"4ad21558f964a5204edf20e3","name":"The Commercial Tavern","contact":{"phone":"+442073778455","formattedPhone":"+44 20 7377 8455"},"location":{"address":"142-144 Commercial St","crossStreet":"Wheler St","lat":51.52151578109354,"lng":-0.07570100845670853,"distance":284,"postalCode":"E1 6NU","cc":"GB","city":"Shoreditch","state":"Greater London","country":"United Kingdom"},"categories":[{"id":"4bf58dd8d48988d11b941735","name":"Pub","pluralName":"Pubs","shortName":"Pub","icon":{"prefix":"https:\/\/ss1.4sqi.net\/img\/categories_v2\/nightlife\/pub_","suffix":".png"},"primary":true}],"verified":false,"stats":{"checkinsCount":3222,"usersCount":2064,"tipCount":37},"specials":{"count":0,"items":[]},"hereNow":{"count":0,"groups":[]},"referralId":"v-1396351310"},{"id":"4aedbc03f964a5206dce21e3","name":"Old Shoreditch Station","contact":{"phone":"+442077295188","formattedPhone":"+44 20 7729 5188"},"location":{"address":"1 Kingsland Rd","crossStreet":"Hare Walk","lat":51.52751593393153,"lng":-0.07832050323486328,"distance":410,"postalCode":"E2 8AA","cc":"GB","city":"Shoreditch","state":"Greater London","country":"United Kingdom"},"categories":[{"id":"4bf58dd8d48988d1e0931735","name":"Coffee Shop","pluralName":"Coffee Shops","shortName":"Coffee Shop","icon":{"prefix":"https:\/\/ss1.4sqi.net\/img\/categories_v2\/food\/coffeeshop_","suffix":".png"},"primary":true}],"verified":false,"stats":{"checkinsCount":2812,"usersCount":1416,"tipCount":25},"specials":{"count":0,"items":[]},"hereNow":{"count":0,"groups":[]},"referralId":"v-1396351310"},{"id":"4ac518c5f964a520c5a420e3","name":"The Big Chill Bar","contact":{"phone":"+442079329180","formattedPhone":"+44 20 7932 9180"},"location":{"address":"Old Truman Brewery","crossStreet":"91 Brick Lane","lat":51.521085,"lng":-0.072653,"distance":416,"postalCode":"E1 6QL","cc":"GB","city":"Shoreditch","state":"Greater London","country":"United Kingdom"},"categories":[{"id":"4bf58dd8d48988d116941735","name":"Bar","pluralName":"Bars","shortName":"Bar","icon":{"prefix":"https:\/\/ss1.4sqi.net\/img\/categories_v2\/nightlife\/bar_","suffix":".png"},"primary":true}],"verified":false,"stats":{"checkinsCount":3682,"usersCount":2544,"tipCount":37},"url":"http:\/\/www.bigchill.net\/bar","specials":{"count":0,"items":[]},"hereNow":{"count":0,"groups":[]},"referralId":"v-1396351310"},{"id":"4ac518c0f964a520aea320e3","name":"Dream Bags Jaguar Shoes","contact":{"phone":"+442077295830","formattedPhone":"+44 20 7729 5830","twitter":"jaguarshoesco"},"location":{"address":"32-34 Kingsland Rd.","lat":51.52796981972546,"lng":-0.07793962955474854,"distance":451,"postalCode":"E2 8DA","cc":"GB","city":"Shoreditch","state":"Greater London","country":"United Kingdom"},"categories":[{"id":"4bf58dd8d48988d116941735","name":"Bar","pluralName":"Bars","shortName":"Bar","icon":{"prefix":"https:\/\/ss1.4sqi.net\/img\/categories_v2\/nightlife\/bar_","suffix":".png"},"primary":true}],"verified":true,"stats":{"checkinsCount":2786,"usersCount":1799,"tipCount":37},"url":"http:\/\/jaguarshoes.com","menu":{"type":"Menu","label":"Menu","anchor":"View Menu","url":"https:\/\/foursquare.com\/v\/dream-bags-jaguar-shoes\/4ac518c0f964a520aea320e3\/menu","mobileUrl":"https:\/\/foursquare.com\/v\/4ac518c0f964a520aea320e3\/device_menu"},"specials":{"count":0,"items":[]},"hereNow":{"count":0,"groups":[]},"venuePage":{"id":"80486584"},"referralId":"v-1396351310"},{"id":"4ad36929f964a5203ee420e3","name":"The Reliance","contact":{"phone":"+442077296888","formattedPhone":"+44 20 7729 6888"},"location":{"address":"336 Old St","crossStreet":"at Charlotte Rd","lat":51.526734,"lng":-0.081398,"distance":460,"postalCode":"EC1V 9DR","cc":"GB","city":"Shoreditch","state":"Greater London","country":"United Kingdom"},"categories":[{"id":"4bf58dd8d48988d11b941735","name":"Pub","pluralName":"Pubs","shortName":"Pub","icon":{"prefix":"https:\/\/ss1.4sqi.net\/img\/categories_v2\/nightlife\/pub_","suffix":".png"},"primary":true}],"verified":false,"stats":{"checkinsCount":3116,"usersCount":1349,"tipCount":15},"url":"http:\/\/www.thereliancepub.co.uk","specials":{"count":0,"items":[]},"hereNow":{"count":0,"groups":[]},"referralId":"v-1396351310"},{"id":"4e7d48d5490179d78c9798a4","name":"Boundary Rooftop","contact":{"phone":"+442077291051","formattedPhone":"+44 20 7729 1051","twitter":"boundaryrooftop"},"location":{"address":"2\u20134 Boundary St","lat":51.52445800027742,"lng":-0.0762500249956993,"distance":47,"postalCode":"E2 7DD","cc":"GB","city":"London","state":"Greater London","country":"United Kingdom"},"categories":[{"id":"4bf58dd8d48988d133951735","name":"Roof Deck","pluralName":"Roof Decks","shortName":"Roof Deck","icon":{"prefix":"https:\/\/ss1.4sqi.net\/img\/categories_v2\/travel\/hotel_roofdeck_","suffix":".png"},"primary":true}],"verified":false,"stats":{"checkinsCount":674,"usersCount":594,"tipCount":14},"url":"http:\/\/www.theboundary.co.uk\/rooftop\/","specials":{"count":0,"items":[]},"hereNow":{"count":0,"groups":[]},"referralId":"v-1396351310"},{"id":"4ace3a10f964a52035cf20e3","name":"Old Kings Head","contact":{"phone":"+442074260658","formattedPhone":"+44 20 7426 0658"},"location":{"address":"28 Holywell Row","crossStreet":"Scrutton Street","lat":51.52314712,"lng":-0.082018,"distance":404,"postalCode":"EC2A 4JB","cc":"GB","city":"London","state":"Greater London","country":"United Kingdom"},"categories":[{"id":"4bf58dd8d48988d11b941735","name":"Pub","pluralName":"Pubs","shortName":"Pub","icon":{"prefix":"https:\/\/ss1.4sqi.net\/img\/categories_v2\/nightlife\/pub_","suffix":".png"},"primary":true}],"verified":false,"stats":{"checkinsCount":3149,"usersCount":605,"tipCount":27},"url":"http:\/\/www.theoldkingshead.uk.com","specials":{"count":0,"items":[]},"hereNow":{"count":0,"groups":[]},"referralId":"v-1396351310"},{"id":"4c801a43dc018cfa9380b96c","name":"The Cornershop","contact":{"phone":"+442076133554","formattedPhone":"+44 20 7613 3554","twitter":"cornershopbar"},"location":{"address":"123 Shoreditch High St.","lat":51.52702199424982,"lng":-0.07819175720214844,"distance":355,"postalCode":"E1 6JE","cc":"GB","city":"Hackney","state":"Greater London","country":"United Kingdom"},"categories":[{"id":"4bf58dd8d48988d116941735","name":"Bar","pluralName":"Bars","shortName":"Bar","icon":{"prefix":"https:\/\/ss1.4sqi.net\/img\/categories_v2\/nightlife\/bar_","suffix":".png"},"primary":true}],"verified":true,"stats":{"checkinsCount":1596,"usersCount":1102,"tipCount":16},"url":"http:\/\/www.thecornershopbar.com","menu":{"type":"Menu","label":"Menu","anchor":"View Menu","url":"https:\/\/foursquare.com\/v\/the-cornershop\/4c801a43dc018cfa9380b96c\/menu","mobileUrl":"https:\/\/foursquare.com\/v\/4c801a43dc018cfa9380b96c\/device_menu"},"specials":{"count":0,"items":[]},"hereNow":{"count":0,"groups":[]},"storeId":"","referralId":"v-1396351310"},{"id":"4b30ef7cf964a52005fd24e3","name":"The Drunken Monkey","contact":{"phone":"+442073929606","formattedPhone":"+44 20 7392 9606"},"location":{"address":"222 Shoreditch High St","lat":51.52279266642751,"lng":-0.07783905047984412,"distance":172,"postalCode":"E1 6PJ","cc":"GB","city":"London","state":"Greater London","country":"United Kingdom"},"categories":[{"id":"4bf58dd8d48988d116941735","name":"Bar","pluralName":"Bars","shortName":"Bar","icon":{"prefix":"https:\/\/ss1.4sqi.net\/img\/categories_v2\/nightlife\/bar_","suffix":".png"},"primary":true}],"verified":false,"stats":{"checkinsCount":1872,"usersCount":1469,"tipCount":49},"url":"http:\/\/www.thedrunkenmonkey.co.uk","reservations":{"url":"http:\/\/www.toptable.co.uk\/single.aspx?rid=21499&ref=9601"},"menu":{"type":"Menu","label":"Menu","anchor":"View Menu","url":"https:\/\/foursquare.com\/v\/the-drunken-monkey\/4b30ef7cf964a52005fd24e3\/menu","mobileUrl":"https:\/\/foursquare.com\/v\/4b30ef7cf964a52005fd24e3\/device_menu"},"specials":{"count":0,"items":[]},"hereNow":{"count":0,"groups":[]},"referralId":"v-1396351310"},{"id":"4eabc01829c2152debe050a2","name":"Full Stop","contact":{"phone":"+442077397086","formattedPhone":"+44 20 7739 7086","twitter":"fullstopbar"},"location":{"address":"202 Brick Ln","lat":51.52416230329007,"lng":-0.07142731537511897,"distance":341,"postalCode":"E1 6SA","cc":"GB","city":"London","state":"Greater London","country":"United Kingdom"},"categories":[{"id":"4bf58dd8d48988d1e0931735","name":"Coffee Shop","pluralName":"Coffee Shops","shortName":"Coffee Shop","icon":{"prefix":"https:\/\/ss1.4sqi.net\/img\/categories_v2\/food\/coffeeshop_","suffix":".png"},"primary":true}],"verified":false,"stats":{"checkinsCount":1105,"usersCount":695,"tipCount":31},"specials":{"count":0,"items":[]},"hereNow":{"count":0,"groups":[]},"referralId":"v-1396351310"},{"id":"4ac518bbf964a52043a220e3","name":"Vibe Bar","contact":{"phone":"+442072473479","formattedPhone":"+44 20 7247 3479"},"location":{"address":"91 - 95 Brick Lane","crossStreet":"at Buxton St","lat":51.521569386738115,"lng":-0.07181720955875377,"distance":417,"postalCode":"E1 6QL","cc":"GB","city":"London","state":"Greater London","country":"United Kingdom"},"categories":[{"id":"4bf58dd8d48988d116941735","name":"Bar","pluralName":"Bars","shortName":"Bar","icon":{"prefix":"https:\/\/ss1.4sqi.net\/img\/categories_v2\/nightlife\/bar_","suffix":".png"},"primary":true}],"verified":false,"stats":{"checkinsCount":3324,"usersCount":2541,"tipCount":28},"url":"http:\/\/www.vibe-bar.co.uk","specials":{"count":0,"items":[]},"hereNow":{"count":0,"groups":[]},"referralId":"v-1396351310"},{"id":"4ac518c7f964a5205da520e3","name":"The Shoreditch","contact":{"phone":"+442070330085","formattedPhone":"+44 20 7033 0085"},"location":{"address":"145 Shoreditch High St.","lat":51.52587817489235,"lng":-0.07783056850897528,"distance":228,"postalCode":"E1 6JE","cc":"GB","city":"Shoreditch","state":"Greater London","country":"United Kingdom"},"categories":[{"id":"4bf58dd8d48988d11e941735","name":"Cocktail Bar","pluralName":"Cocktail Bars","shortName":"Cocktail","icon":{"prefix":"https:\/\/ss1.4sqi.net\/img\/categories_v2\/nightlife\/cocktails_","suffix":".png"},"primary":true}],"verified":false,"stats":{"checkinsCount":1527,"usersCount":1197,"tipCount":17},"url":"http:\/\/www.theshoreditch-london.com","menu":{"type":"Menu","label":"Menu","anchor":"View Menu","url":"https:\/\/foursquare.com\/v\/the-shoreditch\/4ac518c7f964a5205da520e3\/menu","mobileUrl":"https:\/\/foursquare.com\/v\/4ac518c7f964a5205da520e3\/device_menu"},"specials":{"count":0,"items":[]},"hereNow":{"count":0,"groups":[]},"referralId":"v-1396351310"},{"id":"4ac518c3f964a5204ca420e3","name":"Rivington Grill Bar","contact":{"phone":"+442077297053","formattedPhone":"+44 20 7729 7053"},"location":{"address":"28-30 Rivington St.","crossStreet":"at Charlotte Rd","lat":51.52588724765887,"lng":-0.0814962387084961,"distance":411,"postalCode":"EC2A 3DZ","cc":"GB","city":"Shoreditch","state":"Greater London","country":"United Kingdom"},"categories":[{"id":"4bf58dd8d48988d123941735","name":"Wine Bar","pluralName":"Wine Bars","shortName":"Wine Bar","icon":{"prefix":"https:\/\/ss1.4sqi.net\/img\/categories_v2\/nightlife\/wine_","suffix":".png"},"primary":true}],"verified":false,"stats":{"checkinsCount":1465,"usersCount":1006,"tipCount":35},"url":"http:\/\/www.rivingtonshoreditch.co.uk","menu":{"type":"Menu","label":"Menu","anchor":"View Menu","url":"https:\/\/foursquare.com\/v\/rivington-grill-bar\/4ac518c3f964a5204ca420e3\/menu","mobileUrl":"https:\/\/foursquare.com\/v\/4ac518c3f964a5204ca420e3\/device_menu"},"specials":{"count":0,"items":[]},"hereNow":{"count":1,"groups":[{"type":"others","name":"Other people here","count":1,"items":[]}]},"referralId":"v-1396351310"},{"id":"4b73160ef964a5208a9a2de3","name":"Café El Paso","contact":{"phone":"+442077394202","formattedPhone":"+44 20 7739 4202","twitter":"elpasohoxton"},"location":{"address":"350-354 Old St.","lat":51.52688773424131,"lng":-0.08069085708134979,"distance":436,"postalCode":"EC1V 9NQ","cc":"GB","city":"London","state":"Greater London","country":"United Kingdom"},"categories":[{"id":"4bf58dd8d48988d1c1941735","name":"Mexican Restaurant","pluralName":"Mexican Restaurants","shortName":"Mexican","icon":{"prefix":"https:\/\/ss1.4sqi.net\/img\/categories_v2\/food\/mexican_","suffix":".png"},"primary":true}],"verified":false,"stats":{"checkinsCount":1698,"usersCount":1163,"tipCount":38},"url":"http:\/\/www.elpasohoxton.com","menu":{"type":"Menu","label":"Menu","anchor":"View Menu","url":"https:\/\/foursquare.com\/v\/caf%C3%A9-el-paso\/4b73160ef964a5208a9a2de3\/menu","mobileUrl":"https:\/\/foursquare.com\/v\/4b73160ef964a5208a9a2de3\/device_menu"},"specials":{"count":0,"items":[]},"hereNow":{"count":0,"groups":[]},"referralId":"v-1396351310"},{"id":"4ac518c6f964a5201aa520e3","name":"The Hoxton Pony","contact":{"phone":"+442076132844","formattedPhone":"+44 20 7613 2844","twitter":"thehoxtonpony"},"location":{"address":"104-108 Curtain Rd.","lat":51.525409261478316,"lng":-0.08037175239305042,"distance":317,"postalCode":"EC2A 3AH","cc":"GB","city":"Shoreditch","state":"Greater London","country":"United Kingdom"},"categories":[{"id":"4bf58dd8d48988d116941735","name":"Bar","pluralName":"Bars","shortName":"Bar","icon":{"prefix":"https:\/\/ss1.4sqi.net\/img\/categories_v2\/nightlife\/bar_","suffix":".png"},"primary":true}],"verified":true,"stats":{"checkinsCount":1172,"usersCount":918,"tipCount":18},"url":"http:\/\/www.thehoxtonpony.com","menu":{"type":"Menu","label":"Menu","anchor":"View Menu","url":"https:\/\/foursquare.com\/v\/the-hoxton-pony\/4ac518c6f964a5201aa520e3\/menu","mobileUrl":"https:\/\/foursquare.com\/v\/4ac518c6f964a5201aa520e3\/device_menu"},"specials":{"count":0,"items":[]},"hereNow":{"count":0,"groups":[]},"storeId":"","referralId":"v-1396351310"},{"id":"4b5f70caf964a5207fba29e3","name":"The Golden Heart","contact":{"phone":"+442072472158","formattedPhone":"+44 20 7247 2158"},"location":{"address":"110 Commercial St.","lat":51.520243352929384,"lng":-0.07446975589369578,"distance":442,"postalCode":"E1 6LZ","cc":"GB","city":"London","state":"Greater London","country":"United Kingdom"},"categories":[{"id":"4bf58dd8d48988d11b941735","name":"Pub","pluralName":"Pubs","shortName":"Pub","icon":{"prefix":"https:\/\/ss1.4sqi.net\/img\/categories_v2\/nightlife\/pub_","suffix":".png"},"primary":true}],"verified":false,"stats":{"checkinsCount":2082,"usersCount":1202,"tipCount":29},"specials":{"count":0,"items":[]},"hereNow":{"count":0,"groups":[]},"referralId":"v-1396351310"},{"id":"4afc7b6af964a5202a2322e3","name":"The Griffin","contact":{"phone":"+442077396719","formattedPhone":"+44 20 7739 6719"},"location":{"address":"93 Leonard St.","lat":51.524781745770035,"lng":-0.08205213476438124,"distance":403,"postalCode":"EC2A 4RD","cc":"GB","city":"Shoreditch","state":"Greater London","country":"United Kingdom"},"categories":[{"id":"4bf58dd8d48988d11b941735","name":"Pub","pluralName":"Pubs","shortName":"Pub","icon":{"prefix":"https:\/\/ss1.4sqi.net\/img\/categories_v2\/nightlife\/pub_","suffix":".png"},"primary":true}],"verified":false,"stats":{"checkinsCount":2230,"usersCount":1132,"tipCount":11},"specials":{"count":0,"items":[]},"hereNow":{"count":0,"groups":[]},"referralId":"v-1396351310"},{"id":"4ac518c1f964a520b9a320e3","name":"Lounge Lover","contact":{"phone":"+442070121234","formattedPhone":"+44 20 7012 1234"},"location":{"address":"1 Whitby St","lat":51.524242584634436,"lng":-0.07441718324419141,"distance":136,"postalCode":"E1 6JU","cc":"GB","city":"Shoreditch","state":"Greater London","country":"United Kingdom"},"categories":[{"id":"4bf58dd8d48988d11e941735","name":"Cocktail Bar","pluralName":"Cocktail Bars","shortName":"Cocktail","icon":{"prefix":"https:\/\/ss1.4sqi.net\/img\/categories_v2\/nightlife\/cocktails_","suffix":".png"},"primary":true}],"verified":false,"stats":{"checkinsCount":1774,"usersCount":1487,"tipCount":46},"url":"http:\/\/www.loungelover.co.uk","reservations":{"url":"http:\/\/www.toptable.co.uk\/single.aspx?rid=54178&ref=9601"},"menu":{"type":"Menu","label":"Menu","anchor":"View Menu","url":"https:\/\/foursquare.com\/v\/lounge-lover\/4ac518c1f964a520b9a320e3\/menu","mobileUrl":"https:\/\/foursquare.com\/v\/4ac518c1f964a520b9a320e3\/device_menu"},"specials":{"count":0,"items":[]},"hereNow":{"count":0,"groups":[]},"referralId":"v-1396351310"},{"id":"4ad478bbf964a520f5e720e3","name":"Bricklayer's Arms","contact":{"phone":"+442077395245","formattedPhone":"+44 20 7739 5245"},"location":{"address":"63 Charlotte Rd.","crossStreet":"at Rivington St.","lat":51.526081,"lng":-0.08114755153656006,"distance":402,"postalCode":"EC2A 3PE","cc":"GB","city":"Shoreditch","state":"Greater London","country":"United Kingdom"},"categories":[{"id":"4bf58dd8d48988d11b941735","name":"Pub","pluralName":"Pubs","shortName":"Pub","icon":{"prefix":"https:\/\/ss1.4sqi.net\/img\/categories_v2\/nightlife\/pub_","suffix":".png"},"primary":true}],"verified":false,"stats":{"checkinsCount":2760,"usersCount":1220,"tipCount":18},"specials":{"count":0,"items":[]},"hereNow":{"count":0,"groups":[]},"referralId":"v-1396351310"},{"id":"4ace16eef964a52053ce20e3","name":"Bar Prague","contact":{"phone":"+442077399110","formattedPhone":"+44 20 7739 9110","twitter":"barprague"},"location":{"address":"6 Kingsland Rd.","lat":51.52751593393153,"lng":-0.07789134979248047,"distance":401,"postalCode":"E2 8DA","cc":"GB","city":"Shoreditch","state":"Greater London","country":"United Kingdom"},"categories":[{"id":"4bf58dd8d48988d116941735","name":"Bar","pluralName":"Bars","shortName":"Bar","icon":{"prefix":"https:\/\/ss1.4sqi.net\/img\/categories_v2\/nightlife\/bar_","suffix":".png"},"primary":true}],"verified":false,"stats":{"checkinsCount":951,"usersCount":656,"tipCount":15},"url":"http:\/\/www.barprague.com","menu":{"type":"Menu","label":"Menu","anchor":"View Menu","url":"https:\/\/foursquare.com\/v\/bar-prague\/4ace16eef964a52053ce20e3\/menu","mobileUrl":"https:\/\/foursquare.com\/v\/4ace16eef964a52053ce20e3\/device_menu"},"specials":{"count":0,"items":[]},"hereNow":{"count":0,"groups":[]},"referralId":"v-1396351310"},{"id":"509d0a30e4b0b119682fcff6","name":"Shutterbug","contact":{"phone":"+442032220518","formattedPhone":"+44 20 3222 0518","twitter":"shutterbugldn"},"location":{"address":"Rivington Place","crossStreet":"Rivington Place","lat":51.52648812918352,"lng":-0.07922710399853256,"distance":337,"postalCode":"EC2A 3BA","cc":"GB","city":"Shoreditch","state":"Greater London","country":"United Kingdom"},"categories":[{"id":"4bf58dd8d48988d116941735","name":"Bar","pluralName":"Bars","shortName":"Bar","icon":{"prefix":"https:\/\/ss1.4sqi.net\/img\/categories_v2\/nightlife\/bar_","suffix":".png"},"primary":true}],"verified":true,"stats":{"checkinsCount":539,"usersCount":238,"tipCount":13},"url":"http:\/\/www.shutterbug-london.com","menu":{"type":"Menu","label":"Menu","anchor":"View Menu","url":"https:\/\/foursquare.com\/v\/shutterbug\/509d0a30e4b0b119682fcff6\/menu","mobileUrl":"https:\/\/foursquare.com\/v\/509d0a30e4b0b119682fcff6\/device_menu"},"specials":{"count":0,"items":[]},"hereNow":{"count":0,"groups":[]},"venuePage":{"id":"46195403"},"storeId":"","referralId":"v-1396351310"},{"id":"52838415498e582c827db328","name":"The Jones Family Project","contact":{"phone":"+442077391740","formattedPhone":"+44 20 7739 1740","twitter":"jonesshoreditch"},"location":{"address":"78 Great Eastern St","lat":51.52568484094073,"lng":-0.08302468117170392,"distance":496,"postalCode":"EC2A 3JL","cc":"GB","city":"Shoreditch","state":"Greater London","country":"United Kingdom"},"categories":[{"id":"4bf58dd8d48988d1c4941735","name":"Restaurant","pluralName":"Restaurants","shortName":"Restaurant","icon":{"prefix":"https:\/\/ss1.4sqi.net\/img\/categories_v2\/food\/default_","suffix":".png"},"primary":true}],"verified":false,"stats":{"checkinsCount":174,"usersCount":149,"tipCount":10},"url":"http:\/\/www.jonesfamilyproject.co.uk","reservations":{"url":"http:\/\/www.toptable.co.uk\/single.aspx?rid=100446&ref=9601"},"menu":{"type":"Menu","label":"Menu","anchor":"View Menu","url":"https:\/\/foursquare.com\/v\/the-jones-family-project\/52838415498e582c827db328\/menu","mobileUrl":"https:\/\/foursquare.com\/v\/52838415498e582c827db328\/device_menu"},"specials":{"count":0,"items":[]},"hereNow":{"count":0,"groups":[]},"referralId":"v-1396351310"},{"id":"52ff8e94498e1e64e5d9bfc0","name":"Barley Mow","contact":{},"location":{"lat":51.526210071636015,"lng":-0.08052894988745175,"distance":376,"postalCode":"EC2A 3BX","cc":"GB","country":"United Kingdom"},"categories":[{"id":"4bf58dd8d48988d11b941735","name":"Pub","pluralName":"Pubs","shortName":"Pub","icon":{"prefix":"https:\/\/ss1.4sqi.net\/img\/categories_v2\/nightlife\/pub_","suffix":".png"},"primary":true}],"verified":false,"stats":{"checkinsCount":71,"usersCount":66,"tipCount":0},"specials":{"count":0,"items":[]},"hereNow":{"count":0,"groups":[]},"referralId":"v-1396351310"},{"id":"4aec2705f964a52068c521e3","name":"Dragon Bar","contact":{"phone":"+445603118255","formattedPhone":"+44 56 0311 8255"},"location":{"address":"138-139 Shoreditch High St","crossStreet":"at Rivington St","lat":51.52618094948909,"lng":-0.07802009582519531,"distance":264,"postalCode":"E1 6JE","cc":"GB","city":"London","state":"Greater London","country":"United Kingdom"},"categories":[{"id":"4bf58dd8d48988d155941735","name":"Gastropub","pluralName":"Gastropubs","shortName":"Gastropub","icon":{"prefix":"https:\/\/ss1.4sqi.net\/img\/categories_v2\/food\/gastropub_","suffix":".png"},"primary":true}],"verified":false,"stats":{"checkinsCount":2020,"usersCount":1299,"tipCount":25},"specials":{"count":0,"items":[]},"hereNow":{"count":0,"groups":[]},"referralId":"v-1396351310"},{"id":"4b4cfaa0f964a52063c626e3","name":"George & Dragon","contact":{"phone":"+442070121100","formattedPhone":"+44 20 7012 1100"},"location":{"address":"2-4 Hackney Rd.","lat":51.52730233905107,"lng":-0.0771188735961914,"distance":367,"postalCode":"E2 7NS","cc":"GB","city":"Shoreditch","state":"Greater London","country":"United Kingdom"},"categories":[{"id":"4bf58dd8d48988d1d8941735","name":"Gay Bar","pluralName":"Gay Bars","shortName":"Gay Bar","icon":{"prefix":"https:\/\/ss1.4sqi.net\/img\/categories_v2\/nightlife\/gaybar_","suffix":".png"},"primary":true}],"verified":false,"stats":{"checkinsCount":1405,"usersCount":731,"tipCount":11},"specials":{"count":0,"items":[]},"hereNow":{"count":0,"groups":[]},"referralId":"v-1396351310"},{"id":"4af15f9cf964a520fce021e3","name":"Casa Blue","contact":{"phone":"+442077296444","formattedPhone":"+44 20 7729 6444"},"location":{"address":"228 Brick Ln","lat":51.5247407911346,"lng":-0.07160693407058716,"distance":338,"postalCode":"E2 6DG","cc":"GB","city":"London","state":"Greater London","country":"United Kingdom"},"categories":[{"id":"4bf58dd8d48988d116941735","name":"Bar","pluralName":"Bars","shortName":"Bar","icon":{"prefix":"https:\/\/ss1.4sqi.net\/img\/categories_v2\/nightlife\/bar_","suffix":".png"},"primary":true}],"verified":false,"stats":{"checkinsCount":852,"usersCount":687,"tipCount":22},"specials":{"count":0,"items":[]},"hereNow":{"count":0,"groups":[]},"referralId":"v-1396351310"},{"id":"4b5a4faef964a5203abc28e3","name":"Exit","contact":{"phone":"+442073772088","formattedPhone":"+44 20 7377 2088"},"location":{"address":"174 Brick Lane","lat":51.52254508302596,"lng":-0.07158964615633444,"distance":369,"postalCode":"E1 6RU","cc":"GB","city":"London","state":"Greater London","country":"United Kingdom"},"categories":[{"id":"4bf58dd8d48988d116941735","name":"Bar","pluralName":"Bars","shortName":"Bar","icon":{"prefix":"https:\/\/ss1.4sqi.net\/img\/categories_v2\/nightlife\/bar_","suffix":".png"},"primary":true}],"verified":false,"stats":{"checkinsCount":369,"usersCount":302,"tipCount":8},"specials":{"count":0,"items":[]},"hereNow":{"count":0,"groups":[]},"referralId":"v-1396351310"},{"id":"4c13a3f0b7b9c928a5d6a937","name":"Juno","contact":{"phone":"+442077292660","formattedPhone":"+44 20 7729 2660","twitter":"juno_shoreditch"},"location":{"address":"134-135 Shoreditch High St.","lat":51.52638659520755,"lng":-0.077998622963216,"distance":285,"postalCode":"E1 6JE","cc":"GB","city":"London","state":"Greater London","country":"United Kingdom"},"categories":[{"id":"4bf58dd8d48988d116941735","name":"Bar","pluralName":"Bars","shortName":"Bar","icon":{"prefix":"https:\/\/ss1.4sqi.net\/img\/categories_v2\/nightlife\/bar_","suffix":".png"},"primary":true}],"verified":true,"stats":{"checkinsCount":993,"usersCount":788,"tipCount":13},"url":"http:\/\/www.junoshoreditch.co.uk","menu":{"type":"Menu","label":"Menu","anchor":"View Menu","url":"https:\/\/foursquare.com\/v\/juno-london\/4c13a3f0b7b9c928a5d6a937\/menu","mobileUrl":"https:\/\/foursquare.com\/v\/4c13a3f0b7b9c928a5d6a937\/device_menu"},"specials":{"count":0,"items":[]},"hereNow":{"count":0,"groups":[]},"venuePage":{"id":"35488870"},"referralId":"v-1396351310"},{"id":"4ac518c8f964a5208fa520e3","name":"333 Mother Club","contact":{"phone":"+442077391800","formattedPhone":"+44 20 7739 1800"},"location":{"address":"333 Old St.","lat":51.52718582998016,"lng":-0.08012425146970925,"distance":436,"postalCode":"EC1V 9LE","cc":"GB","city":"Hoxton","state":"Greater London","country":"United Kingdom"},"categories":[{"id":"4bf58dd8d48988d11f941735","name":"Nightclub","pluralName":"Nightclubs","shortName":"Nightclub","icon":{"prefix":"https:\/\/ss1.4sqi.net\/img\/categories_v2\/nightlife\/nightclub_","suffix":".png"},"primary":true}],"verified":false,"stats":{"checkinsCount":1314,"usersCount":938,"tipCount":24},"url":"http:\/\/333mother.com","specials":{"count":0,"items":[]},"hereNow":{"count":0,"groups":[]},"referralId":"v-1396351310"},{"id":"4b59ea3ef964a52091a028e3","name":"Concrete Bar","contact":{},"location":{"address":"Tea Building, 56 Shoreditch High St","lat":51.523645445042085,"lng":-0.0769578621089409,"distance":60,"postalCode":"E1 6JJ","cc":"GB","city":"Shoreditch","state":"Greater London","country":"United Kingdom"},"categories":[{"id":"4bf58dd8d48988d116941735","name":"Bar","pluralName":"Bars","shortName":"Bar","icon":{"prefix":"https:\/\/ss1.4sqi.net\/img\/categories_v2\/nightlife\/bar_","suffix":".png"},"primary":true}],"verified":false,"stats":{"checkinsCount":1080,"usersCount":951,"tipCount":14},"specials":{"count":0,"items":[]},"hereNow":{"count":0,"groups":[]},"referralId":"v-1396351310"},{"id":"4fd27b31e4b0abd6647bcc3d","name":"Translate","contact":{"phone":"+442034870796","formattedPhone":"+44 20 3487 0796","twitter":"translatebar"},"location":{"address":"12-14 Kingsland Rd","crossStreet":"Shoreditch","lat":51.527516115714974,"lng":-0.07787585644575855,"distance":401,"postalCode":"E2 8DA","cc":"GB","city":"London","state":"Greater London","country":"United Kingdom"},"categories":[{"id":"4bf58dd8d48988d116941735","name":"Bar","pluralName":"Bars","shortName":"Bar","icon":{"prefix":"https:\/\/ss1.4sqi.net\/img\/categories_v2\/nightlife\/bar_","suffix":".png"},"primary":true}],"verified":true,"stats":{"checkinsCount":760,"usersCount":531,"tipCount":14},"url":"http:\/\/www.translateshoreditch.com","specials":{"count":1,"items":[{"id":"531db142498ef895d866d0c3","type":"frequency","message":"Get 50% off ANY of our burgers up until the end of April 1st. Don't be a fool! \n\nMidday til 9pm everyday.\n\nTreat yourself. Get the juice in your beard. Get messy. Battle with it. Eat like a hero.","photo":{"id":"531db14111d2db87efe4b0b8","createdAt":1394454849,"prefix":"https:\/\/irs2.4sqi.net\/img\/general\/","suffix":"\/41743857_Hhr4R8TDGCl6Oo1xiDXRoZxzS5boDqQDHF3zYkHlX9k.jpg","width":640,"height":640},"description":"Unlocked every check-in","icon":"check-in","title":"Check-in Special","provider":"foursquare","redemption":"standard","page":{"id":"41743857","firstName":"Translate","gender":"none","photo":{"prefix":"https:\/\/irs1.4sqi.net\/img\/user\/","suffix":"\/41743857-YDYPX0BO4GMSBWSR.jpg"},"type":"venuePage","venue":{"id":"4fd27b31e4b0abd6647bcc3d"},"tips":{"count":0},"homeCity":"London","bio":"","contact":{"twitter":"translatebar"}}}]},"hereNow":{"count":0,"groups":[]},"venuePage":{"id":"41743857"},"storeId":"","referralId":"v-1396351310"},{"id":"4ac518c7f964a52055a520e3","name":"The Horse & Groom","contact":{},"location":{"address":"28 Curtain Rd","crossStreet":"at Hearn St","lat":51.52285666815187,"lng":-0.0805521011352539,"distance":318,"postalCode":"EC2A 3NZ","cc":"GB","city":"London","state":"Greater London","country":"United Kingdom"},"categories":[{"id":"4bf58dd8d48988d116941735","name":"Bar","pluralName":"Bars","shortName":"Bar","icon":{"prefix":"https:\/\/ss1.4sqi.net\/img\/categories_v2\/nightlife\/bar_","suffix":".png"},"primary":true}],"verified":false,"stats":{"checkinsCount":985,"usersCount":780,"tipCount":10},"specials":{"count":0,"items":[]},"hereNow":{"count":0,"groups":[]},"referralId":"v-1396351310"},{"id":"4bca120dcc8cd13a1edcbccf","name":"The Spread Eagle Bar","contact":{"phone":"+442077297186","formattedPhone":"+44 20 7729 7186"},"location":{"address":"3-5 Kingsland Rd","lat":51.527413127768405,"lng":-0.07802452232343955,"distance":393,"postalCode":"E2 8AA","cc":"GB","city":"Shoreditch","state":"Greater London","country":"United Kingdom"},"categories":[{"id":"4bf58dd8d48988d116941735","name":"Bar","pluralName":"Bars","shortName":"Bar","icon":{"prefix":"https:\/\/ss1.4sqi.net\/img\/categories_v2\/nightlife\/bar_","suffix":".png"},"primary":true}],"verified":false,"stats":{"checkinsCount":706,"usersCount":537,"tipCount":7},"url":"http:\/\/www.spreadeaglebar.com","specials":{"count":0,"items":[]},"hereNow":{"count":0,"groups":[]},"referralId":"v-1396351310"},{"id":"518d34da498e9cbf89ad52f6","name":"Cottons Rhum Shack","contact":{"phone":"+442077299723","formattedPhone":"+44 20 7729 9723"},"location":{"address":"Boxpark, 2-4 Bethnal Green Rd","lat":51.52354310372139,"lng":-0.07645253916316506,"distance":55,"postalCode":"E1 6GY","cc":"GB","city":"London","state":"Greater London","country":"United Kingdom"},"categories":[{"id":"4bf58dd8d48988d144941735","name":"Caribbean Restaurant","pluralName":"Caribbean Restaurants","shortName":"Caribbean","icon":{"prefix":"https:\/\/ss1.4sqi.net\/img\/categories_v2\/food\/caribbean_","suffix":".png"},"primary":true}],"verified":false,"stats":{"checkinsCount":187,"usersCount":166,"tipCount":8},"url":"http:\/\/www.rhumshack.co.uk","menu":{"type":"Menu","label":"Menu","anchor":"View Menu","url":"https:\/\/foursquare.com\/v\/cottons-rhum-shack\/518d34da498e9cbf89ad52f6\/menu","mobileUrl":"https:\/\/foursquare.com\/v\/518d34da498e9cbf89ad52f6\/device_menu"},"specials":{"count":0,"items":[]},"hereNow":{"count":0,"groups":[]},"referralId":"v-1396351310"},{"id":"4b116167f964a520467b23e3","name":"Trafik","contact":{"phone":"+442076130234","formattedPhone":"+44 20 7613 0234"},"location":{"address":"331 Old St","lat":51.52711383008725,"lng":-0.08047988586612288,"distance":445,"postalCode":"EC1V 9LE","cc":"GB","city":"London","state":"Greater London","country":"United Kingdom"},"categories":[{"id":"4bf58dd8d48988d116941735","name":"Bar","pluralName":"Bars","shortName":"Bar","icon":{"prefix":"https:\/\/ss1.4sqi.net\/img\/categories_v2\/nightlife\/bar_","suffix":".png"},"primary":true}],"verified":false,"stats":{"checkinsCount":741,"usersCount":503,"tipCount":13},"menu":{"type":"Menu","label":"Menu","anchor":"View Menu","url":"https:\/\/foursquare.com\/v\/trafik\/4b116167f964a520467b23e3\/menu","mobileUrl":"https:\/\/foursquare.com\/v\/4b116167f964a520467b23e3\/device_menu"},"specials":{"count":0,"items":[]},"hereNow":{"count":0,"groups":[]},"referralId":"v-1396351310"}]}}